time (ms)' NMEA_SENTENCE
8266'$GPRMC,235950.800,V,,,,,0.00,0.00,050180,,,N*41
9198'$GPGGA,235951.800,,,,,0,0,,,M,,M,,*49
9260'$GPRMC,235951.800,V,,,,,0.00,0.00,050180,,,N*40
10190'$GPGGA,235952.800,,,,,0,0,,,M,,M,,*4A
10251'$GPRMC,235952.800,V,,,,,0.00,0.00,050180,,,N*43
11188'$GPGGA,235953.800,,,,,0,0,,,M,,M,,*4B
11249'$GPRMC,235953.800,V,,,,,0.00,0.00,050180,,,N*42
12187'$GPGGA,235954.800,,,,,0,0,,,M,,M,,*4C
12248'$GPRMC,235954.800,V,,,,,0.00,0.00,050180,,,N*45
13186'$GPGGA,235955.800,,,,,0,0,,,M,,M,,*4D
13251'$GPRMC,235955.800,V,,,,,0.00,0.00,050180,,,N*44
14183'$GPGGA,235956.800,,,,,0,0,,,M,,M,,*4E
14242'$GPRMC,235956.800,V,,,,,0.00,0.00,050180,,,N*47
15191'$GPGGA,235957.800,,,,,0,0,,,M,,M,,*4F
15250'$GPRMC,235957.800,V,,,,,0.00,0.00,050180,,,N*46
15869'$GPGGA,235958.472,,,,,0,0,,,M,,M,,*49
15929'$GPRMC,235958.472,V,,,,,0.00,0.00,050180,,,N*40
16858'$GPGGA,235959.472,,,,,0,0,,,M,,M,,*48
16917'$GPRMC,235959.472,V,,,,,0.00,0.00,050180,,,N*41
17859'$GPGGA,152720.092,,,,,0,0,,,M,,M,,*40
17920'$GPRMC,152720.092,V,,,,,0.00,0.00,090180,,,N*45
18857'$GPGGA,152721.092,,,,,0,0,,,M,,M,,*41
time (ms)' NMEA_SENTENCE
983'$GPGGA,152724.092,,,,,0,0,,,M,,M,,*44
1038'$GPRMC,152724.092,V,,,,,0.00,0.00,090180,,,N*41
1979'$GPGGA,152725.092,,,,,0,0,,,M,,M,,*45
2038'$GPRMC,152725.092,V,,,,,0.00,0.00,090180,,,N*40
2988'$GPGGA,152726.092,,,,,0,0,,,M,,M,,*46
3047'$GPRMC,152726.092,V,,,,,0.00,0.00,090180,,,N*43
3977'$GPGGA,152727.092,,,,,0,0,,,M,,M,,*47
4036'$GPRMC,152727.092,V,,,,,0.00,0.00,090180,,,N*42
4976'$GPGGA,152728.092,,,,,0,0,,,M,,M,,*48
5035'$GPRMC,152728.092,V,,,,,0.00,0.00,090180,,,N*4D
5974'$GPGGA,152729.092,,,,,0,0,,,M,,M,,*49
6032'$GPRMC,152729.092,V,,,,,0.00,0.00,090180,,,N*4C
6974'$GPGGA,152730.087,,,,,0,0,,,M,,M,,*45
7033'$GPRMC,152730.087,V,,,,,0.00,0.00,090180,,,N*40
7193'$GPGGA,152730.308,,,,,0,0,,,M,,M,,*41
7252'$GPRMC,152730.308,V,,,,,0.00,0.00,090180,,,N*44
8183'$GPGGA,152731.308,,,,,0,0,,,M,,M,,*40
8243'$GPRMC,152731.308,V,,,,,0.00,0.00,090180,,,N*45
9190'$GPGGA,152732.308,,,,,0,0,,,M,,M,,*43
9255'$GPRMC,152732.308,V,,,,,0.00,0.00,090180,,,N*46
10180'$GPGGA,152733.308,,,,,0,0,,,M,,M,,*42
10241'$GPRMC,152733.308,V,,,,,0.00,0.00,090180,,,N*47
11180'$GPGGA,152734.308,,,,,0,0,,,M,,M,,*45
11239'$GPRMC,152734.308,V,,,,,0.00,0.00,090180,,,N*40
12184'$GPGGA,152735.308,,,,,0,0,,,M,,M,,*44
12244'$GPRMC,152735.308,V,,,,,0.00,0.00,090180,,,N*41
12974'$GPGGA,152736.087,,,,,0,0,,,M,,M,,*43
13034'$GPRMC,152736.087,V,,,,,0.00,0.00,090180,,,N*46
13182'$GPGGA,152736.308,,,,,0,0,,,M,,M,,*47
13247'$GPRMC,152736.308,V,,,,,0.00,0.00,090180,,,N*42
14175'$GPGGA,152737.308,,,,,0,0,,,M,,M,,*46
14234'$GPRMC,152737.308,V,,,,,0.00,0.00,090180,,,N*43
15172'$GPGGA,152738.308,,,,,0,0,,,M,,M,,*49
15233'$GPRMC,152738.308,V,,,,,0.00,0.00,090180,,,N*4C
16172'$GPGGA,152739.308,,,,,0,0,,,M,,M,,*48
16231'$GPRMC,152739.308,V,,,,,0.00,0.00,090180,,,N*4D
17170'$GPGGA,152740.308,,,,,0,0,,,M,,M,,*46
17229'$GPRMC,152740.308,V,,,,,0.00,0.00,090180,,,N*43
18168'$GPGGA,152741.308,,,,,0,0,,,M,,M,,*47
18235'$GPRMC,152741.308,V,,,,,0.00,0.00,090180,,,N*42
18968'$GPGGA,152742.102,,,,,0,0,,,M,,M,,*4C
19027'$GPRMC,152742.102,V,,,,,0.00,0.00,090180,,,N*49
19963'$GPGGA,152743.102,,,,,0,0,,,M,,M,,*4D
20023'$GPRMC,152743.102,V,,,,,0.00,0.00,090180,,,N*48
20962'$GPGGA,152744.102,,,,,0,0,,,M,,M,,*4A
21021'$GPRMC,152744.102,V,,,,,0.00,0.00,090180,,,N*4F
21970'$GPGGA,152745.102,,,,,0,0,,,M,,M,,*4B
22030'$GPRMC,152745.102,V,,,,,0.00,0.00,090180,,,N*4E
22959'$GPGGA,152746.102,,,,,0,0,,,M,,M,,*48
23018'$GPRMC,152746.102,V,,,,,0.00,0.00,090180,,,N*4D
23967'$GPGGA,152747.102,,,,,0,0,,,M,,M,,*49
24028'$GPRMC,152747.102,V,,,,,0.00,0.00,090180,,,N*4C
24958'$GPGGA,152748.097,,,,,0,0,,,M,,M,,*4B
25019'$GPRMC,152748.097,V,,,,,0.00,0.00,090180,,,N*4E
25947'$GPGGA,152749.097,,,,,0,0,,,M,,M,,*4A
26007'$GPRMC,152749.097,V,,,,,0.00,0.00,090180,,,N*4F
26945'$GPGGA,152750.097,,,,,0,0,,,M,,M,,*42
27004'$GPRMC,152750.097,V,,,,,0.00,0.00,090180,,,N*47
27945'$GPGGA,152751.097,,,,,0,0,,,M,,M,,*43
28005'$GPRMC,152751.097,V,,,,,0.00,0.00,090180,,,N*46
28943'$GPGGA,152752.097,,,,,0,0,,,M,,M,,*40
29002'$GPRMC,152752.097,V,,,,,0.00,0.00,090180,,,N*45
29949'$GPGGA,152753.097,,,,,0,0,,,M,,M,,*41
30009'$GPRMC,152753.097,V,,,,,0.00,0.00,090180,,,N*44
31149'$GPGGA,152754.097,,,,,0,0,,,M,,M,,*46
31209'$GPRMC,152754.097,V,,,,,0.00,0.00,040821,,,N*4C
31884'$GPGGA,152755.097,,,,,0,0,,,M,,M,,*47
31943'$GPRMC,152755.097,V,,,,,0.00,0.00,040821,,,N*4D
32877'$GPGGA,152756.097,,,,,0,0,,,M,,M,,*44
32936'$GPRMC,152756.097,V,,,,,0.00,0.00,040821,,,N*4E
33874'$GPGGA,152757.097,,,,,0,0,,,M,,M,,*45
33934'$GPRMC,152757.097,V,,,,,0.00,0.00,040821,,,N*4F
34874'$GPGGA,152758.095,,,,,0,3,,,M,,M,,*4B
34933'$GPRMC,152758.095,V,,,,,0.00,0.00,040821,,,N*42
35873'$GPGGA,152759.095,,,,,0,0,,,M,,M,,*49
35933'$GPRMC,152759.095,V,,,,,0.00,0.00,040821,,,N*43
36893'$GPGGA,152800.086,,,,,0,3,,,M,,M,,*4B
36954'$GPRMC,152800.086,V,,,,,0.40,0.00,040821,,,N*46
37875'$GPGGA,152801.086,,,,,0,3,,,M,,M,,*4A
37943'$GPRMC,152801.086,V,,,,,0.45,0.00,040821,,,N*42
38880'$GPGGA,152802.086,,,,,0,3,,,M,,M,,*49
38941'$GPRMC,152802.086,V,,,,,1.03,115.67,040821,,,N*46
39867'$GPGGA,152803.086,,,,,0,3,,,M,,M,,*48
39929'$GPRMC,152803.086,V,,,,,0.73,128.60,040821,,,N*48
40865'$GPGGA,152804.086,,,,,0,3,,,M,,M,,*4F
40928'$GPRMC,152804.086,V,,,,,0.22,128.60,040821,,,N*4B
41863'$GPGGA,152805.086,,,,,0,3,,,M,,M,,*4E
41925'$GPRMC,152805.086,V,,,,,0.29,128.60,040821,,,N*41
42865'$GPGGA,152806.086,,,,,0,3,,,M,,M,,*4D
42927'$GPRMC,152806.086,V,,,,,0.11,128.60,040821,,,N*49
43863'$GPGGA,152807.086,,,,,0,3,,,M,,M,,*4C
43925'$GPRMC,152807.086,V,,,,,0.33,128.60,040821,,,N*48
44859'$GPGGA,152808.086,,,,,0,3,,,M,,M,,*43
44921'$GPRMC,152808.086,V,,,,,0.67,120.89,040821,,,N*49
45857'$GPGGA,152809.086,,,,,0,3,,,M,,M,,*42
45919'$GPRMC,152809.086,V,,,,,0.48,120.89,040821,,,N*45
46857'$GPGGA,152810.086,,,,,0,3,,,M,,M,,*4A
46918'$GPRMC,152810.086,V,,,,,0.23,120.89,040821,,,N*40
47854'$GPGGA,152811.086,,,,,0,3,,,M,,M,,*4B
47916'$GPRMC,152811.086,V,,,,,0.20,120.89,040821,,,N*42
48875'$GPGGA,152812.086,,,,,0,3,,,M,,M,,*48
48937'$GPRMC,152812.086,V,,,,,0.23,120.89,040821,,,N*42
49869'$GPGGA,152813.086,,,,,0,3,,,M,,M,,*49
49932'$GPRMC,152813.086,V,,,,,0.29,120.89,040821,,,N*49
50867'$GPGGA,152814.086,,,,,0,3,,,M,,M,,*4E
50929'$GPRMC,152814.086,V,,,,,0.14,120.89,040821,,,N*40
51866'$GPGGA,152815.086,,,,,0,3,,,M,,M,,*4F
51928'$GPRMC,152815.086,V,,,,,0.18,120.89,040821,,,N*4D
52846'$GPGGA,152816.086,,,,,0,3,,,M,,M,,*4C
52908'$GPRMC,152816.086,V,,,,,0.19,120.89,040821,,,N*4F
53844'$GPGGA,152817.086,,,,,0,3,,,M,,M,,*4D
53906'$GPRMC,152817.086,V,,,,,0.28,120.89,040821,,,N*4C
54855'$GPGGA,152818.086,,,,,0,3,,,M,,M,,*42
54917'$GPRMC,152818.086,V,,,,,0.39,120.89,040821,,,N*43
55844'$GPGGA,152819.086,,,,,0,3,,,M,,M,,*43
55907'$GPRMC,152819.086,V,,,,,0.17,120.89,040821,,,N*4E
56841'$GPGGA,152820.086,,,,,0,3,,,M,,M,,*49
56902'$GPRMC,152820.086,V,,,,,0.27,120.89,040821,,,N*47
57847'$GPGGA,152821.086,,,,,0,3,,,M,,M,,*48
57909'$GPRMC,152821.086,V,,,,,0.76,305.48,040821,,,N*4A
58858'$GPGGA,152822.086,,,,,0,3,,,M,,M,,*4B
58917'$GPRMC,152822.086,V,,,,,0.47,305.48,040821,,,N*4B
59845'$GPGGA,152823.086,,,,,0,3,,,M,,M,,*4A
59908'$GPRMC,152823.086,V,,,,,0.57,305.48,040821,,,N*4B
60858'$GPGGA,152824.086,,,,,0,5,,,M,,M,,*4B
60919'$GPRMC,152824.086,V,,,,,0.15,305.48,040821,,,N*4A
61894'$GPGGA,152825.086,3921.5444,N,11234.5661,W,1,5,1.58,1404.5,M,-17.0,M,,*56
61961'$GPRMC,152825.086,A,3921.5444,N,11234.5661,W,0.07,305.48,040821,,,A*70
63818'$GPGGA,152827.000,3921.5438,N,11234.5656,W,1,5,1.88,1408.1,M,-17.0,M,,*50
63893'$GPRMC,152827.000,A,3921.5438,N,11234.5656,W,1.72,166.61,040821,,,A*7C
64809'$GPGGA,152828.000,3921.5434,N,11234.5657,W,1,5,1.88,1410.7,M,-17.0,M,,*5D
64876'$GPRMC,152828.000,A,3921.5434,N,11234.5657,W,1.70,166.72,040821,,,A*7E
65817'$GPGGA,152829.000,3921.5434,N,11234.5656,W,1,5,1.58,1411.7,M,-17.0,M,,*51
65884'$GPRMC,152829.000,A,3921.5434,N,11234.5656,W,0.13,166.72,040821,,,A*7A
66798'$GPGGA,152830.000,3921.5431,N,11234.5657,W,1,5,1.58,1413.7,M,-17.0,M,,*5F
66867'$GPRMC,152830.000,A,3921.5431,N,11234.5657,W,0.10,166.72,040821,,,A*75
67811'$GPGGA,152831.000,3921.5427,N,11234.5654,W,1,6,1.46,1415.1,M,-17.0,M,,*56
67877'$GPRMC,152831.000,A,3921.5427,N,11234.5654,W,0.11,166.72,040821,,,A*71
68803'$GPGGA,152832.000,3921.5421,N,11234.5649,W,1,6,1.46,1417.0,M,-17.0,M,,*5C
68872'$GPRMC,152832.000,A,3921.5421,N,11234.5649,W,0.09,166.72,040821,,,A*71
69794'$GPGGA,152833.000,3921.5416,N,11234.5647,W,1,6,1.46,1418.7,M,-17.0,M,,*5F
69863'$GPRMC,152833.000,A,3921.5416,N,11234.5647,W,0.06,166.72,040821,,,A*75
70804'$GPGGA,152834.000,3921.5411,N,11234.5645,W,1,6,1.46,1420.2,M,-17.0,M,,*53
70872'$GPRMC,152834.000,A,3921.5411,N,11234.5645,W,0.03,166.72,040821,,,A*72
71805'$GPGGA,152835.000,3921.5406,N,11234.5643,W,1,6,1.46,1422.3,M,-17.0,M,,*51
71874'$GPRMC,152835.000,A,3921.5406,N,11234.5643,W,0.04,166.72,040821,,,A*74
72798'$GPGGA,152836.000,3921.5400,N,11234.5641,W,1,6,1.46,1424.2,M,-17.0,M,,*51
72866'$GPRMC,152836.000,A,3921.5400,N,11234.5641,W,0.02,166.72,040821,,,A*75
73792'$GPGGA,152837.000,3921.5396,N,11234.5638,W,1,6,1.46,1425.8,M,-17.0,M,,*5D
73861'$GPRMC,152837.000,A,3921.5396,N,11234.5638,W,0.04,166.72,040821,,,A*74
74793'$GPGGA,152838.000,3921.5392,N,11234.5637,W,1,6,1.46,1427.4,M,-17.0,M,,*57
74861'$GPRMC,152838.000,A,3921.5392,N,11234.5637,W,0.07,166.72,040821,,,A*73
75792'$GPGGA,152839.000,3921.5387,N,11234.5635,W,1,6,1.46,1429.1,M,-17.0,M,,*5B
75859'$GPRMC,152839.000,A,3921.5387,N,11234.5635,W,0.06,166.72,040821,,,A*75
76800'$GPGGA,152840.000,3921.5383,N,11234.5633,W,1,6,1.46,1430.4,M,-17.0,M,,*5A
76874'$GPRMC,152840.000,A,3921.5383,N,11234.5633,W,0.10,166.72,040821,,,A*7E
77791'$GPGGA,152841.000,3921.5379,N,11234.5630,W,1,6,1.46,1432.1,M,-17.0,M,,*5A
77858'$GPRMC,152841.000,A,3921.5379,N,11234.5630,W,0.18,166.72,040821,,,A*71
78790'$GPGGA,152842.000,3921.5376,N,11234.5628,W,1,6,1.46,1433.4,M,-17.0,M,,*5B
78858'$GPRMC,152842.000,A,3921.5376,N,11234.5628,W,0.16,166.72,040821,,,A*7A
79799'$GPGGA,152843.000,3921.5375,N,11234.5627,W,1,6,1.46,1434.2,M,-17.0,M,,*57
79872'$GPRMC,152843.000,A,3921.5375,N,11234.5627,W,0.16,166.72,040821,,,A*77
80795'$GPGGA,152844.000,3921.5374,N,11234.5627,W,1,6,1.46,1434.8,M,-17.0,M,,*5B
80863'$GPRMC,152844.000,A,3921.5374,N,11234.5627,W,0.11,166.72,040821,,,A*76
81793'$GPGGA,152845.000,3921.5374,N,11234.5627,W,1,6,1.46,1435.1,M,-17.0,M,,*52
81860'$GPRMC,152845.000,A,3921.5374,N,11234.5627,W,0.08,166.72,040821,,,A*7F
82777'$GPGGA,152846.000,3921.5373,N,11234.5628,W,1,6,1.46,1435.3,M,-17.0,M,,*5B
82844'$GPRMC,152846.000,A,3921.5373,N,11234.5628,W,0.04,166.72,040821,,,A*78
83776'$GPGGA,152847.000,3921.5373,N,11234.5629,W,1,6,1.46,1435.0,M,-17.0,M,,*58
83844'$GPRMC,152847.000,A,3921.5373,N,11234.5629,W,0.10,166.72,040821,,,A*7D
84779'$GPGGA,152848.000,3921.5374,N,11234.5631,W,1,6,1.46,1434.7,M,-17.0,M,,*5F
84846'$GPRMC,152848.000,A,3921.5374,N,11234.5631,W,0.15,166.72,040821,,,A*79
85787'$GPGGA,152849.000,3921.5376,N,11234.5633,W,1,6,1.46,1434.2,M,-17.0,M,,*5B
85855'$GPRMC,152849.000,A,3921.5376,N,11234.5633,W,0.17,166.72,040821,,,A*7A
86767'$GPGGA,152850.000,3921.5379,N,11234.5634,W,1,6,1.46,1433.8,M,-17.0,M,,*56
86836'$GPRMC,152850.000,A,3921.5379,N,11234.5634,W,0.28,166.72,040821,,,A*76
87767'$GPGGA,152851.000,3921.5381,N,11234.5636,W,1,6,1.46,1433.0,M,-17.0,M,,*5A
87835'$GPRMC,152851.000,A,3921.5381,N,11234.5636,W,0.26,166.72,040821,,,A*7C
88790'$GPGGA,152852.000,3921.5382,N,11234.5638,W,1,6,1.86,1432.1,M,-17.0,M,,*58
88857'$GPRMC,152852.000,A,3921.5382,N,11234.5638,W,0.18,166.72,040821,,,A*7F
89764'$GPGGA,152853.000,3921.5384,N,11234.5639,W,1,6,1.46,1431.0,M,-17.0,M,,*50
89839'$GPRMC,152853.000,A,3921.5384,N,11234.5639,W,0.16,166.72,040821,,,A*77
90763'$GPGGA,152854.000,3921.5385,N,11234.5640,W,1,6,1.46,1430.1,M,-17.0,M,,*58
90831'$GPRMC,152854.000,A,3921.5385,N,11234.5640,W,0.22,166.72,040821,,,A*78
91774'$GPGGA,152855.000,3921.5386,N,11234.5642,W,1,6,1.46,1429.4,M,-17.0,M,,*55
91843'$GPRMC,152855.000,A,3921.5386,N,11234.5642,W,0.19,166.72,040821,,,A*70
92775'$GPGGA,152856.000,3921.5388,N,11234.5643,W,1,6,1.46,1428.8,M,-17.0,M,,*54
92848'$GPRMC,152856.000,A,3921.5388,N,11234.5643,W,0.15,166.72,040821,,,A*70
93773'$GPGGA,152857.000,3921.5389,N,11234.5643,W,1,6,1.46,1428.1,M,-17.0,M,,*5D
93841'$GPRMC,152857.000,A,3921.5389,N,11234.5643,W,0.12,166.72,040821,,,A*77
94765'$GPGGA,152858.000,3921.5391,N,11234.5644,W,1,6,1.46,1427.3,M,-17.0,M,,*51
94832'$GPRMC,152858.000,A,3921.5391,N,11234.5644,W,0.07,166.72,040821,,,A*72
95763'$GPGGA,152859.000,3921.5391,N,11234.5644,W,1,6,1.46,1427.3,M,-17.0,M,,*50
95837'$GPRMC,152859.000,A,3921.5391,N,11234.5644,W,0.04,166.72,040821,,,A*70
96768'$GPGGA,152900.000,3921.5391,N,11234.5644,W,1,6,1.46,1427.3,M,-17.0,M,,*5D
96835'$GPRMC,152900.000,A,3921.5391,N,11234.5644,W,0.01,166.72,040821,,,A*78
97777'$GPGGA,152901.000,3921.5391,N,11234.5644,W,1,6,1.46,1427.2,M,-17.0,M,,*5D
97846'$GPRMC,152901.000,A,3921.5391,N,11234.5644,W,0.01,166.72,040821,,,A*79
98775'$GPGGA,152902.000,3921.5391,N,11234.5644,W,1,6,1.46,1427.2,M,-17.0,M,,*5E
98852'$GPRMC,152902.000,A,3921.5391,N,11234.5644,W,0.03,166.72,040821,,,A*78
99770'$GPGGA,152903.000,3921.5391,N,11234.5644,W,1,6,1.46,1427.2,M,-17.0,M,,*5F
99838'$GPRMC,152903.000,A,3921.5391,N,11234.5644,W,0.01,166.72,040821,,,A*7B
100757'$GPGGA,152904.000,3921.5391,N,11234.5644,W,1,6,1.46,1427.2,M,-17.0,M,,*58
100825'$GPRMC,152904.000,A,3921.5391,N,11234.5644,W,0.02,166.72,040821,,,A*7F
101769'$GPGGA,152905.000,3921.5391,N,11234.5644,W,1,6,1.85,1427.2,M,-17.0,M,,*56
101837'$GPRMC,152905.000,A,3921.5391,N,11234.5644,W,0.00,166.72,040821,,,A*7C
102763'$GPGGA,152906.000,3921.5391,N,11234.5644,W,1,6,1.46,1427.2,M,-17.0,M,,*5A
102831'$GPRMC,152906.000,A,3921.5391,N,11234.5644,W,0.02,166.72,040821,,,A*7D
103769'$GPGGA,152907.000,3921.5391,N,11234.5644,W,1,6,1.46,1427.2,M,-17.0,M,,*5B
103836'$GPRMC,152907.000,A,3921.5391,N,11234.5644,W,0.01,166.72,040821,,,A*7F
104752'$GPGGA,152908.000,3921.5391,N,11234.5644,W,1,6,1.46,1427.2,M,-17.0,M,,*54
104819'$GPRMC,152908.000,A,3921.5391,N,11234.5644,W,0.00,166.72,040821,,,A*71
105752'$GPGGA,152909.000,3921.5392,N,11234.5644,W,1,6,1.46,1427.1,M,-17.0,M,,*55
105824'$GPRMC,152909.000,A,3921.5392,N,11234.5644,W,0.03,166.72,040821,,,A*70
106760'$GPGGA,152910.000,3921.5392,N,11234.5644,W,1,6,1.46,1427.1,M,-17.0,M,,*5D
106827'$GPRMC,152910.000,A,3921.5392,N,11234.5644,W,0.01,166.72,040821,,,A*7A
107743'$GPGGA,152911.000,3921.5392,N,11234.5644,W,1,6,1.46,1427.1,M,-17.0,M,,*5C
107810'$GPRMC,152911.000,A,3921.5392,N,11234.5644,W,0.01,166.72,040821,,,A*7B
108740'$GPGGA,152912.000,3921.5392,N,11234.5644,W,1,6,1.46,1427.1,M,-17.0,M,,*5F
108815'$GPRMC,152912.000,A,3921.5392,N,11234.5644,W,0.01,166.72,040821,,,A*78
109766'$GPGGA,152913.000,3921.5392,N,11234.5644,W,1,6,1.46,1427.1,M,-17.0,M,,*5E
109834'$GPRMC,152913.000,A,3921.5392,N,11234.5644,W,0.01,166.72,040821,,,A*79
110740'$GPGGA,152914.000,3921.5392,N,11234.5644,W,1,6,1.46,1427.1,M,-17.0,M,,*59
110809'$GPRMC,152914.000,A,3921.5392,N,11234.5644,W,0.02,166.72,040821,,,A*7D
111755'$GPGGA,152915.000,3921.5392,N,11234.5644,W,1,6,1.85,1427.1,M,-17.0,M,,*57
111826'$GPRMC,152915.000,A,3921.5392,N,11234.5644,W,0.01,166.72,040821,,,A*7F
112746'$GPGGA,152916.000,3921.5392,N,11234.5644,W,1,6,1.46,1427.1,M,-17.0,M,,*5B
112814'$GPRMC,152916.000,A,3921.5392,N,11234.5644,W,0.01,166.72,040821,,,A*7C
113743'$GPGGA,152917.000,3921.5392,N,11234.5644,W,1,6,1.46,1427.1,M,-17.0,M,,*5A
113812'$GPRMC,152917.000,A,3921.5392,N,11234.5644,W,0.00,166.72,040821,,,A*7C
114748'$GPGGA,152918.000,3921.5392,N,11234.5644,W,1,6,1.46,1427.1,M,-17.0,M,,*55
114817'$GPRMC,152918.000,A,3921.5392,N,11234.5644,W,0.02,166.72,040821,,,A*71
115739'$GPGGA,152919.000,3921.5392,N,11234.5644,W,1,6,1.46,1427.1,M,-17.0,M,,*54
115808'$GPRMC,152919.000,A,3921.5392,N,11234.5644,W,0.01,166.72,040821,,,A*73
116747'$GPGGA,152920.000,3921.5392,N,11234.5644,W,1,6,1.46,1427.1,M,-17.0,M,,*5E
116814'$GPRMC,152920.000,A,3921.5392,N,11234.5644,W,0.01,166.72,040821,,,A*79
117735'$GPGGA,152921.000,3921.5392,N,11234.5644,W,1,6,1.46,1427.2,M,-17.0,M,,*5C
117803'$GPRMC,152921.000,A,3921.5392,N,11234.5644,W,0.01,166.72,040821,,,A*78
118743'$GPGGA,152922.000,3921.5392,N,11234.5644,W,1,6,1.46,1427.1,M,-17.0,M,,*5C
118811'$GPRMC,152922.000,A,3921.5392,N,11234.5644,W,0.00,166.72,040821,,,A*7A
119727'$GPGGA,152923.000,3921.5392,N,11234.5644,W,1,6,1.46,1427.1,M,-17.0,M,,*5D
119794'$GPRMC,152923.000,A,3921.5392,N,11234.5644,W,0.02,166.72,040821,,,A*79
120749'$GPGGA,152924.000,3921.5392,N,11234.5643,W,1,6,1.46,1427.1,M,-17.0,M,,*5D
120816'$GPRMC,152924.000,A,3921.5392,N,11234.5643,W,0.01,166.72,040821,,,A*7A
122020'$GPGGA,152925.000,3921.5392,N,11234.5643,W,1,7,1.28,1427.1,M,-17.0,M,,*55
122088'$GPRMC,152925.000,A,3921.5392,N,11234.5643,W,0.04,166.72,040821,,,A*7E
122721'$GPGGA,152926.000,3921.5392,N,11234.5644,W,1,7,1.28,1427.1,M,-17.0,M,,*51
122788'$GPRMC,152926.000,A,3921.5392,N,11234.5644,W,0.01,166.72,040821,,,A*7F
123730'$GPGGA,152927.000,3921.5392,N,11234.5644,W,1,7,1.28,1427.1,M,-17.0,M,,*50
123798'$GPRMC,152927.000,A,3921.5392,N,11234.5644,W,0.02,166.72,040821,,,A*7D
124723'$GPGGA,152928.000,3921.5392,N,11234.5644,W,1,7,1.28,1427.1,M,-17.0,M,,*5F
124794'$GPRMC,152928.000,A,3921.5392,N,11234.5644,W,0.03,166.72,040821,,,A*73
125725'$GPGGA,152929.000,3921.5392,N,11234.5643,W,1,7,1.28,1427.1,M,-17.0,M,,*59
125793'$GPRMC,152929.000,A,3921.5392,N,11234.5643,W,0.03,166.72,040821,,,A*75
126720'$GPGGA,152930.000,3921.5392,N,11234.5643,W,1,7,1.59,1427.1,M,-17.0,M,,*57
126786'$GPRMC,152930.000,A,3921.5392,N,11234.5643,W,0.01,166.72,040821,,,A*7F
127732'$GPGGA,152931.000,3921.5392,N,11234.5643,W,1,7,1.28,1427.1,M,-17.0,M,,*50
127807'$GPRMC,152931.000,A,3921.5392,N,11234.5643,W,0.01,166.72,040821,,,A*7E
128730'$GPGGA,152932.000,3921.5392,N,11234.5644,W,1,7,1.28,1427.1,M,-17.0,M,,*54
128797'$GPRMC,152932.000,A,3921.5392,N,11234.5644,W,0.01,166.72,040821,,,A*7A
129728'$GPGGA,152933.000,3921.5392,N,11234.5644,W,1,7,1.59,1427.1,M,-17.0,M,,*53
129796'$GPRMC,152933.000,A,3921.5392,N,11234.5644,W,0.01,166.72,040821,,,A*7B
130724'$GPGGA,152934.000,3921.5392,N,11234.5643,W,1,7,1.28,1427.1,M,-17.0,M,,*55
130792'$GPRMC,152934.000,A,3921.5392,N,11234.5643,W,0.04,166.72,040821,,,A*7E
131709'$GPGGA,152935.000,3921.5392,N,11234.5644,W,1,7,1.28,1427.0,M,-17.0,M,,*52
131777'$GPRMC,152935.000,A,3921.5392,N,11234.5644,W,0.02,166.72,040821,,,A*7E
132709'$GPGGA,152936.000,3921.5392,N,11234.5644,W,1,7,1.28,1427.0,M,-17.0,M,,*51
132776'$GPRMC,152936.000,A,3921.5392,N,11234.5644,W,0.01,166.72,040821,,,A*7E
133723'$GPGGA,152937.000,3921.5392,N,11234.5644,W,1,7,1.28,1427.0,M,-17.0,M,,*50
133789'$GPRMC,152937.000,A,3921.5392,N,11234.5644,W,0.02,166.72,040821,,,A*7C
134720'$GPGGA,152938.000,3921.5392,N,11234.5644,W,1,7,1.59,1427.0,M,-17.0,M,,*59
134787'$GPRMC,152938.000,A,3921.5392,N,11234.5644,W,0.02,166.72,040821,,,A*73
135714'$GPGGA,152939.000,3921.5392,N,11234.5644,W,1,7,1.28,1427.0,M,-17.0,M,,*5E
135782'$GPRMC,152939.000,A,3921.5392,N,11234.5644,W,0.01,166.72,040821,,,A*71
136719'$GPGGA,152940.000,3921.5392,N,11234.5644,W,1,7,1.28,1427.0,M,-17.0,M,,*50
136785'$GPRMC,152940.000,A,3921.5392,N,11234.5644,W,0.07,166.72,040821,,,A*79
137706'$GPGGA,152941.000,3921.5392,N,11234.5643,W,1,7,1.28,1426.9,M,-17.0,M,,*5E
137775'$GPRMC,152941.000,A,3921.5392,N,11234.5643,W,0.07,166.72,040821,,,A*7F
138698'$GPGGA,152942.000,3921.5392,N,11234.5644,W,1,7,1.28,1426.9,M,-17.0,M,,*5A
138767'$GPRMC,152942.000,A,3921.5392,N,11234.5644,W,0.11,166.72,040821,,,A*7C
139724'$GPGGA,152943.000,3921.5392,N,11234.5643,W,1,7,1.28,1426.9,M,-17.0,M,,*5C
139792'$GPRMC,152943.000,A,3921.5392,N,11234.5643,W,0.03,166.72,040821,,,A*79
140967'$GPGGA,152944.000,3921.5392,N,11234.5643,W,1,7,1.28,1426.9,M,-17.0,M,,*5B
141045'$GPRMC,152944.000,A,3921.5392,N,11234.5643,W,0.01,166.72,040821,,,A*7C
142022'$GPGGA,152945.000,3921.5392,N,11234.5643,W,1,7,1.28,1426.9,M,-17.0,M,,*5A
142094'$GPRMC,152945.000,A,3921.5392,N,11234.5643,W,0.01,166.72,040821,,,A*7D
142998'$GPGGA,152946.000,3921.5392,N,11234.5643,W,1,7,1.28,1426.9,M,-17.0,M,,*59
143070'$GPRMC,152946.000,A,3921.5392,N,11234.5643,W,0.01,166.72,040821,,,A*7E
143935'$GPGGA,152947.000,3921.5392,N,11234.5643,W,1,7,1.28,1426.9,M,-17.0,M,,*58
144012'$GPRMC,152947.000,A,3921.5392,N,11234.5643,W,0.11,166.72,040821,,,A*7E
145021'$GPGGA,152948.000,3921.5392,N,11234.5643,W,1,7,1.28,1426.9,M,-17.0,M,,*57
145093'$GPRMC,152948.000,A,3921.5392,N,11234.5643,W,0.00,166.72,040821,,,A*71
145959'$GPGGA,152949.000,3921.5392,N,11234.5643,W,1,7,1.28,1426.9,M,-17.0,M,,*56
146030'$GPRMC,152949.000,A,3921.5392,N,11234.5643,W,0.01,166.72,040821,,,A*71
146952'$GPGGA,152950.000,3921.5392,N,11234.5643,W,1,7,1.28,1426.9,M,-17.0,M,,*5E
147030'$GPRMC,152950.000,A,3921.5392,N,11234.5643,W,0.03,166.72,040821,,,A*7B
147942'$GPGGA,152951.000,3921.5392,N,11234.5643,W,1,7,1.28,1426.9,M,-17.0,M,,*5F
148014'$GPRMC,152951.000,A,3921.5392,N,11234.5643,W,0.03,166.72,040821,,,A*7A
148950'$GPGGA,152952.000,3921.5392,N,11234.5643,W,1,7,1.28,1426.9,M,-17.0,M,,*5C
149020'$GPRMC,152952.000,A,3921.5392,N,11234.5643,W,0.00,166.72,040821,,,A*7A
149957'$GPGGA,152953.000,3921.5392,N,11234.5643,W,1,7,1.28,1426.9,M,-17.0,M,,*5D
150029'$GPRMC,152953.000,A,3921.5392,N,11234.5643,W,0.03,166.72,040821,,,A*78
150938'$GPGGA,152954.000,3921.5392,N,11234.5643,W,1,7,1.28,1426.9,M,-17.0,M,,*5A
151010'$GPRMC,152954.000,A,3921.5392,N,11234.5643,W,0.04,166.72,040821,,,A*78
152004'$GPGGA,152955.000,3921.5392,N,11234.5643,W,1,7,1.28,1426.9,M,-17.0,M,,*5B
152075'$GPRMC,152955.000,A,3921.5392,N,11234.5643,W,0.03,166.72,040821,,,A*7E
152934'$GPGGA,152956.000,3921.5392,N,11234.5643,W,1,7,1.28,1426.9,M,-17.0,M,,*58
153006'$GPRMC,152956.000,A,3921.5392,N,11234.5643,W,0.01,166.72,040821,,,A*7F
153938'$GPGGA,152957.000,3921.5392,N,11234.5643,W,1,7,1.28,1426.9,M,-17.0,M,,*59
154010'$GPRMC,152957.000,A,3921.5392,N,11234.5643,W,0.02,166.72,040821,,,A*7D
155010'$GPGGA,152958.000,3921.5392,N,11234.5643,W,1,7,1.28,1426.9,M,-17.0,M,,*56
155080'$GPRMC,152958.000,A,3921.5392,N,11234.5643,W,0.03,166.72,040821,,,A*73
155981'$GPGGA,152959.000,3921.5392,N,11234.5643,W,1,7,1.28,1426.9,M,-17.0,M,,*57
156053'$GPRMC,152959.000,A,3921.5392,N,11234.5643,W,0.01,166.72,040821,,,A*70
156988'$GPGGA,153000.000,3921.5392,N,11234.5643,W,1,7,1.28,1427.0,M,-17.0,M,,*5B
157059'$GPRMC,153000.000,A,3921.5392,N,11234.5643,W,0.03,166.72,040821,,,A*76
157948'$GPGGA,153001.000,3921.5392,N,11234.5643,W,1,7,1.28,1427.0,M,-17.0,M,,*5A
158022'$GPRMC,153001.000,A,3921.5392,N,11234.5643,W,0.02,166.72,040821,,,A*76
158950'$GPGGA,153002.000,3921.5392,N,11234.5643,W,1,7,1.28,1427.0,M,-17.0,M,,*59
159021'$GPRMC,153002.000,A,3921.5392,N,11234.5643,W,0.03,166.72,040821,,,A*74
159947'$GPGGA,153003.000,3921.5392,N,11234.5643,W,1,7,1.28,1427.0,M,-17.0,M,,*58
160025'$GPRMC,153003.000,A,3921.5392,N,11234.5643,W,0.05,166.72,040821,,,A*73
160929'$GPGGA,153004.000,3921.5392,N,11234.5643,W,1,7,1.28,1427.1,M,-17.0,M,,*5E
161000'$GPRMC,153004.000,A,3921.5392,N,11234.5643,W,0.01,166.72,040821,,,A*70
161940'$GPGGA,153005.000,3921.5392,N,11234.5643,W,1,7,1.28,1427.1,M,-17.0,M,,*5F
162012'$GPRMC,153005.000,A,3921.5392,N,11234.5643,W,0.05,166.72,040821,,,A*75
162974'$GPGGA,153006.000,3921.5391,N,11234.5643,W,1,7,1.28,1427.1,M,-17.0,M,,*5F
163051'$GPRMC,153006.000,A,3921.5391,N,11234.5643,W,0.02,166.72,040821,,,A*72
163982'$GPGGA,153007.000,3921.5391,N,11234.5643,W,1,7,1.28,1427.2,M,-17.0,M,,*5D
164054'$GPRMC,153007.000,A,3921.5391,N,11234.5643,W,0.15,166.72,040821,,,A*75
164928'$GPGGA,153008.000,3921.5391,N,11234.5642,W,1,7,1.28,1427.3,M,-17.0,M,,*52
164999'$GPRMC,153008.000,A,3921.5391,N,11234.5642,W,0.09,166.72,040821,,,A*76
165997'$GPGGA,153009.000,3921.5391,N,11234.5642,W,1,7,1.28,1427.4,M,-17.0,M,,*54
166067'$GPRMC,153009.000,A,3921.5391,N,11234.5642,W,0.10,166.72,040821,,,A*7F
166930'$GPGGA,153010.000,3921.5391,N,11234.5641,W,1,7,1.28,1427.5,M,-17.0,M,,*5E
167002'$GPRMC,153010.000,A,3921.5391,N,11234.5641,W,0.05,166.72,040821,,,A*70
167908'$GPGGA,153011.000,3921.5391,N,11234.5641,W,1,7,1.28,1427.6,M,-17.0,M,,*5C
167984'$GPRMC,153011.000,A,3921.5391,N,11234.5641,W,0.03,166.72,040821,,,A*77
168907'$GPGGA,153012.000,3921.5391,N,11234.5641,W,1,7,1.28,1427.6,M,-17.0,M,,*5F
168982'$GPRMC,153012.000,A,3921.5391,N,11234.5641,W,0.03,166.72,040821,,,A*74
169936'$GPGGA,153013.000,3921.5391,N,11234.5641,W,1,7,1.28,1427.6,M,-17.0,M,,*5E
170008'$GPRMC,153013.000,A,3921.5391,N,11234.5641,W,0.03,166.72,040821,,,A*75
170903'$GPGGA,153014.000,3921.5391,N,11234.5641,W,1,6,1.42,1427.6,M,-17.0,M,,*54
170974'$GPRMC,153014.000,A,3921.5391,N,11234.5641,W,0.04,166.72,040821,,,A*75
171929'$GPGGA,153015.000,3921.5391,N,11234.5641,W,1,7,1.28,1427.7,M,-17.0,M,,*59
172001'$GPRMC,153015.000,A,3921.5391,N,11234.5641,W,0.03,166.72,040821,,,A*73
172955'$GPGGA,153016.000,3921.5391,N,11234.5641,W,1,6,1.42,1427.7,M,-17.0,M,,*57
173027'$GPRMC,153016.000,A,3921.5391,N,11234.5641,W,0.08,166.72,040821,,,A*7B
173900'$GPGGA,153017.000,3921.5391,N,11234.5641,W,1,6,1.42,1427.8,M,-17.0,M,,*59
173972'$GPRMC,153017.000,A,3921.5391,N,11234.5641,W,0.04,166.72,040821,,,A*76
174906'$GPGGA,153018.000,3921.5391,N,11234.5641,W,1,6,1.42,1427.7,M,-17.0,M,,*59
174978'$GPRMC,153018.000,A,3921.5391,N,11234.5641,W,0.07,166.72,040821,,,A*7A
175964'$GPGGA,153019.000,3921.5391,N,11234.5641,W,1,7,1.28,1427.8,M,-17.0,M,,*5A
176040'$GPRMC,153019.000,A,3921.5391,N,11234.5641,W,0.01,166.72,040821,,,A*7D
176953'$GPGGA,153020.000,3921.5391,N,11234.5641,W,1,7,1.28,1427.8,M,-17.0,M,,*50
177024'$GPRMC,153020.000,A,3921.5391,N,11234.5641,W,0.02,166.72,040821,,,A*74
177963'$GPGGA,153021.000,3921.5391,N,11234.5640,W,1,7,1.28,1427.8,M,-17.0,M,,*50
178034'$GPRMC,153021.000,A,3921.5391,N,11234.5640,W,0.02,166.72,040821,,,A*74
178900'$GPGGA,153022.000,3921.5391,N,11234.5641,W,1,7,1.28,1427.8,M,-17.0,M,,*52
178978'$GPRMC,153022.000,A,3921.5391,N,11234.5641,W,0.04,166.72,040821,,,A*70
179917'$GPGGA,153023.000,3921.5391,N,11234.5640,W,1,7,1.28,1427.8,M,-17.0,M,,*52
179988'$GPRMC,153023.000,A,3921.5391,N,11234.5640,W,0.02,166.72,040821,,,A*76
180889'$GPGGA,153024.000,3921.5391,N,11234.5640,W,1,7,1.28,1427.8,M,-17.0,M,,*55
180961'$GPRMC,153024.000,A,3921.5391,N,11234.5640,W,0.02,166.72,040821,,,A*71
181901'$GPGGA,153025.000,3921.5391,N,11234.5640,W,1,7,1.28,1427.8,M,-17.0,M,,*54
181977'$GPRMC,153025.000,A,3921.5391,N,11234.5640,W,0.01,166.72,040821,,,A*73
182896'$GPGGA,153026.000,3921.5391,N,11234.5640,W,1,7,1.28,1427.8,M,-17.0,M,,*57
182968'$GPRMC,153026.000,A,3921.5391,N,11234.5640,W,0.03,166.72,040821,,,A*72
183933'$GPGGA,153027.000,3921.5391,N,11234.5640,W,1,6,1.42,1427.8,M,-17.0,M,,*5B
184004'$GPRMC,153027.000,A,3921.5391,N,11234.5640,W,0.02,166.72,040821,,,A*72
184953'$GPGGA,153028.000,3921.5391,N,11234.5640,W,1,6,1.42,1427.8,M,-17.0,M,,*54
185025'$GPRMC,153028.000,A,3921.5391,N,11234.5640,W,0.01,166.72,040821,,,A*7E
185897'$GPGGA,153029.000,3921.5391,N,11234.5640,W,1,7,1.28,1427.8,M,-17.0,M,,*58
185969'$GPRMC,153029.000,A,3921.5391,N,11234.5640,W,0.07,166.72,040821,,,A*79
186948'$GPGGA,153030.000,3921.5391,N,11234.5640,W,1,7,1.28,1427.8,M,-17.0,M,,*50
187020'$GPRMC,153030.000,A,3921.5391,N,11234.5640,W,0.03,166.72,040821,,,A*75
187912'$GPGGA,153031.000,3921.5391,N,11234.5640,W,1,7,1.28,1427.9,M,-17.0,M,,*50
187983'$GPRMC,153031.000,A,3921.5391,N,11234.5640,W,0.06,166.72,040821,,,A*71
188890'$GPGGA,153032.000,3921.5391,N,11234.5640,W,1,7,1.28,1427.9,M,-17.0,M,,*53
188961'$GPRMC,153032.000,A,3921.5391,N,11234.5640,W,0.01,166.72,040821,,,A*75
189880'$GPGGA,153033.000,3921.5391,N,11234.5640,W,1,7,1.28,1427.9,M,-17.0,M,,*52
189952'$GPRMC,153033.000,A,3921.5391,N,11234.5640,W,0.02,166.72,040821,,,A*77
190872'$GPGGA,153034.000,3921.5391,N,11234.5640,W,1,6,1.42,1427.9,M,-17.0,M,,*58
190944'$GPRMC,153034.000,A,3921.5391,N,11234.5640,W,0.03,166.72,040821,,,A*71
191874'$GPGGA,153035.000,3921.5391,N,11234.5640,W,1,6,1.42,1427.9,M,-17.0,M,,*59
191945'$GPRMC,153035.000,A,3921.5391,N,11234.5640,W,0.02,166.72,040821,,,A*71
192887'$GPGGA,153036.000,3921.5391,N,11234.5640,W,1,6,1.42,1427.9,M,-17.0,M,,*5A
192959'$GPRMC,153036.000,A,3921.5391,N,11234.5640,W,0.03,166.72,040821,,,A*73
193909'$GPGGA,153037.000,3921.5391,N,11234.5640,W,1,6,1.42,1427.9,M,-17.0,M,,*5B
193981'$GPRMC,153037.000,A,3921.5391,N,11234.5640,W,0.05,166.72,040821,,,A*74
194929'$GPGGA,153038.000,3921.5391,N,11234.5640,W,1,7,1.28,1427.9,M,-17.0,M,,*59
195006'$GPRMC,153038.000,A,3921.5391,N,11234.5640,W,0.03,166.72,040821,,,A*7D
195870'$GPGGA,153039.000,3921.5391,N,11234.5640,W,1,6,1.42,1427.9,M,-17.0,M,,*55
195941'$GPRMC,153039.000,A,3921.5391,N,11234.5640,W,0.02,166.72,040821,,,A*7D
196951'$GPGGA,153040.000,3921.5391,N,11234.5639,W,1,7,1.28,1428.0,M,-17.0,M,,*5E
197021'$GPRMC,153040.000,A,3921.5391,N,11234.5639,W,0.05,166.72,040821,,,A*7A
197950'$GPGGA,153041.000,3921.5391,N,11234.5640,W,1,7,1.28,1428.0,M,-17.0,M,,*51
198028'$GPRMC,153041.000,A,3921.5391,N,11234.5640,W,0.03,166.72,040821,,,A*73
198916'$GPGGA,153042.000,3921.5391,N,11234.5640,W,1,6,1.42,1428.0,M,-17.0,M,,*5F
198986'$GPRMC,153042.000,A,3921.5391,N,11234.5640,W,0.12,166.72,040821,,,A*70
199914'$GPGGA,153043.000,3921.5390,N,11234.5640,W,1,7,1.28,1428.1,M,-17.0,M,,*53
199985'$GPRMC,153043.000,A,3921.5390,N,11234.5640,W,0.03,166.72,040821,,,A*70
200883'$GPGGA,153044.000,3921.5390,N,11234.5640,W,1,7,1.29,1428.1,M,-17.0,M,,*55
200960'$GPRMC,153044.000,A,3921.5390,N,11234.5640,W,0.03,166.72,040821,,,A*77
201882'$GPGGA,153045.000,3921.5390,N,11234.5640,W,1,7,1.29,1428.2,M,-17.0,M,,*57
201954'$GPRMC,153045.000,A,3921.5390,N,11234.5640,W,0.01,166.72,040821,,,A*74
202871'$GPGGA,153046.000,3921.5390,N,11234.5640,W,1,7,1.28,1428.2,M,-17.0,M,,*55
202943'$GPRMC,153046.000,A,3921.5390,N,11234.5640,W,0.04,166.72,040821,,,A*72
203860'$GPGGA,153047.000,3921.5390,N,11234.5640,W,1,7,1.29,1428.3,M,-17.0,M,,*54
203931'$GPRMC,153047.000,A,3921.5390,N,11234.5640,W,0.03,166.72,040821,,,A*74
204929'$GPGGA,153048.000,3921.5390,N,11234.5640,W,1,7,1.28,1428.3,M,-17.0,M,,*5A
205000'$GPRMC,153048.000,A,3921.5390,N,11234.5640,W,0.09,166.72,040821,,,A*71
205923'$GPGGA,153049.000,3921.5390,N,11234.5640,W,1,7,1.28,1428.3,M,-17.0,M,,*5B
205995'$GPRMC,153049.000,A,3921.5390,N,11234.5640,W,0.08,166.72,040821,,,A*71
206859'$GPGGA,153050.000,3921.5390,N,11234.5640,W,1,7,1.28,1428.4,M,-17.0,M,,*54
206930'$GPRMC,153050.000,A,3921.5390,N,11234.5640,W,0.07,166.72,040821,,,A*76
207903'$GPGGA,153051.000,3921.5390,N,11234.5639,W,1,7,1.29,1428.4,M,-17.0,M,,*5A
207975'$GPRMC,153051.000,A,3921.5390,N,11234.5639,W,0.03,166.72,040821,,,A*7D
208866'$GPGGA,153052.000,3921.5390,N,11234.5639,W,1,7,1.28,1428.4,M,-17.0,M,,*58
208936'$GPRMC,153052.000,A,3921.5390,N,11234.5639,W,0.03,166.72,040821,,,A*7E
209873'$GPGGA,153053.000,3921.5390,N,11234.5639,W,1,7,1.28,1428.4,M,-17.0,M,,*59
209945'$GPRMC,153053.000,A,3921.5390,N,11234.5639,W,0.09,166.72,040821,,,A*75
210853'$GPGGA,153054.000,3921.5390,N,11234.5639,W,1,7,1.29,1428.5,M,-17.0,M,,*5E
210931'$GPRMC,153054.000,A,3921.5390,N,11234.5639,W,0.05,166.72,040821,,,A*7E
211885'$GPGGA,153055.000,3921.5390,N,11234.5639,W,1,7,1.29,1428.5,M,-17.0,M,,*5F
211956'$GPRMC,153055.000,A,3921.5390,N,11234.5639,W,0.04,166.72,040821,,,A*7E
212869'$GPGGA,153056.000,3921.5389,N,11234.5639,W,1,7,1.29,1428.6,M,-17.0,M,,*57
212940'$GPRMC,153056.000,A,3921.5389,N,11234.5639,W,0.01,166.72,040821,,,A*70
213849'$GPGGA,153057.000,3921.5389,N,11234.5639,W,1,7,1.28,1428.6,M,-17.0,M,,*57
213924'$GPRMC,153057.000,A,3921.5389,N,11234.5639,W,0.05,166.72,040821,,,A*75
214865'$GPGGA,153058.000,3921.5389,N,11234.5639,W,1,7,1.29,1428.6,M,-17.0,M,,*59
214936'$GPRMC,153058.000,A,3921.5389,N,11234.5639,W,0.01,166.72,040821,,,A*7E
215915'$GPGGA,153059.000,3921.5389,N,11234.5639,W,1,7,1.29,1428.7,M,-17.0,M,,*59
215987'$GPRMC,153059.000,A,3921.5389,N,11234.5639,W,0.03,166.72,040821,,,A*7D
216862'$GPGGA,153100.000,3921.5389,N,11234.5638,W,2,7,1.29,1428.8,M,-17.0,M,0000,0000*59
216940'$GPRMC,153100.000,A,3921.5389,N,11234.5638,W,0.02,166.72,040821,,,D*75
217940'$GPGGA,153101.000,3921.5389,N,11234.5639,W,2,8,1.00,1428.7,M,-17.0,M,0000,0000*52
218008'$GPRMC,153101.000,A,3921.5389,N,11234.5639,W,0.02,166.72,040821,,,D*75
218609'$GPGGA,153102.000,3921.5390,N,11234.5639,W,2,8,1.00,1428.8,M,-17.0,M,0000,0000*56
218677'$GPRMC,153102.000,A,3921.5390,N,11234.5639,W,0.02,166.72,040821,,,D*7E
219593'$GPGGA,153103.000,3921.5390,N,11234.5639,W,2,8,1.00,1428.8,M,-17.0,M,0000,0000*57
219681'$GPRMC,153103.000,A,3921.5390,N,11234.5639,W,0.19,166.72,040821,,,D*75
220610'$GPGGA,153104.000,3921.5389,N,11234.5641,W,2,8,1.00,1429.2,M,-17.0,M,0000,0000*5C
220679'$GPRMC,153104.000,A,3921.5389,N,11234.5641,W,1.49,173.20,040821,,,D*72
221585'$GPGGA,153105.000,3921.5386,N,11234.5647,W,2,8,1.00,1430.7,M,-17.0,M,0000,0000*59
221654'$GPRMC,153105.000,A,3921.5386,N,11234.5647,W,1.86,178.63,040821,,,D*75
222583'$GPGGA,153106.000,3921.5383,N,11234.5652,W,2,8,1.00,1432.4,M,-17.0,M,0000,0000*5A
222659'$GPRMC,153106.000,A,3921.5383,N,11234.5652,W,2.39,181.85,040821,,,D*7E
223608'$GPGGA,153107.000,3921.5381,N,11234.5656,W,2,8,1.00,1433.6,M,-17.0,M,0000,0000*5E
223676'$GPRMC,153107.000,A,3921.5381,N,11234.5656,W,1.98,187.11,040821,,,D*7A
224578'$GPGGA,153108.000,3921.5381,N,11234.5657,W,2,8,1.00,1434.2,M,-17.0,M,0000,0000*53
224646'$GPRMC,153108.000,A,3921.5381,N,11234.5657,W,0.70,215.33,040821,,,D*7B
225588'$GPGGA,153109.000,3921.5382,N,11234.5656,W,2,7,1.09,1434.2,M,-17.0,M,0000,0000*56
225660'$GPRMC,153109.000,A,3921.5382,N,11234.5656,W,0.68,216.80,040821,,,D*7A
226582'$GPGGA,153110.000,3921.5381,N,11234.5654,W,2,8,1.00,1434.4,M,-17.0,M,0000,0000*5F
226649'$GPRMC,153110.000,A,3921.5381,N,11234.5654,W,0.65,178.87,040821,,,D*72
227575'$GPGGA,153111.000,3921.5381,N,11234.5654,W,2,8,1.00,1434.7,M,-17.0,M,0000,0000*5D
227642'$GPRMC,153111.000,A,3921.5381,N,11234.5654,W,0.22,178.87,040821,,,D*70
228594'$GPGGA,153112.000,3921.5381,N,11234.5654,W,2,8,1.00,1434.8,M,-17.0,M,0000,0000*51
228668'$GPRMC,153112.000,A,3921.5381,N,11234.5654,W,0.19,178.87,040821,,,D*7B
229580'$GPGGA,153113.000,3921.5381,N,11234.5654,W,2,8,1.00,1435.0,M,-17.0,M,0000,0000*59
229647'$GPRMC,153113.000,A,3921.5381,N,11234.5654,W,0.16,178.87,040821,,,D*75
230568'$GPGGA,153114.000,3921.5382,N,11234.5655,W,2,8,1.00,1435.1,M,-17.0,M,0000,0000*5D
230636'$GPRMC,153114.000,A,3921.5382,N,11234.5655,W,0.15,178.87,040821,,,D*73
231566'$GPGGA,153115.000,3921.5382,N,11234.5655,W,2,8,1.00,1435.3,M,-17.0,M,0000,0000*5E
231638'$GPRMC,153115.000,A,3921.5382,N,11234.5655,W,0.12,178.87,040821,,,D*75
232569'$GPGGA,153116.000,3921.5382,N,11234.5655,W,2,8,1.00,1435.4,M,-17.0,M,0000,0000*5A
232636'$GPRMC,153116.000,A,3921.5382,N,11234.5655,W,0.10,178.87,040821,,,D*74
233568'$GPGGA,153117.000,3921.5382,N,11234.5654,W,2,8,1.00,1435.5,M,-17.0,M,0000,0000*5B
233635'$GPRMC,153117.000,A,3921.5382,N,11234.5654,W,0.09,178.87,040821,,,D*7C
234576'$GPGGA,153118.000,3921.5383,N,11234.5653,W,2,8,1.00,1435.7,M,-17.0,M,0000,0000*50
234644'$GPRMC,153118.000,A,3921.5383,N,11234.5653,W,0.43,178.87,040821,,,D*7B
235586'$GPGGA,153119.000,3921.5383,N,11234.5652,W,2,8,1.00,1435.7,M,-17.0,M,0000,0000*50
235654'$GPRMC,153119.000,A,3921.5383,N,11234.5652,W,0.24,178.87,040821,,,D*7A
236898'$GPGGA,153120.000,3921.5384,N,11234.5650,W,2,8,1.00,1435.7,M,-17.0,M,0000,0000*5F
236969'$GPRMC,153120.000,A,3921.5384,N,11234.5650,W,0.21,178.87,040821,,,D*70
237846'$GPGGA,153121.000,3921.5383,N,11234.5646,W,2,8,1.00,1435.8,M,-17.0,M,0000,0000*51
237918'$GPRMC,153121.000,A,3921.5383,N,11234.5646,W,0.37,178.87,040821,,,D*76
238911'$GPGGA,153122.000,3921.5384,N,11234.5647,W,2,8,1.00,1434.5,M,-17.0,M,0000,0000*58
238982'$GPRMC,153122.000,A,3921.5384,N,11234.5647,W,0.43,178.87,040821,,,D*70
239883'$GPGGA,153123.000,3921.5384,N,11234.5648,W,2,8,1.00,1433.7,M,-17.0,M,0000,0000*53
239953'$GPRMC,153123.000,A,3921.5384,N,11234.5648,W,0.38,178.87,040821,,,D*72
240888'$GPGGA,153124.000,3921.5384,N,11234.5648,W,2,8,1.00,1433.5,M,-17.0,M,0000,0000*56
240959'$GPRMC,153124.000,A,3921.5384,N,11234.5648,W,0.11,178.87,040821,,,D*7E
241898'$GPGGA,153125.000,3921.5385,N,11234.5648,W,2,8,1.08,1433.2,M,-17.0,M,0000,0000*59
241970'$GPRMC,153125.000,A,3921.5385,N,11234.5648,W,0.10,178.87,040821,,,D*7F
242834'$GPGGA,153126.000,3921.5385,N,11234.5648,W,2,8,1.00,1433.1,M,-17.0,M,0000,0000*51
242904'$GPRMC,153126.000,A,3921.5385,N,11234.5648,W,0.09,178.87,040821,,,D*74
243828'$GPGGA,153127.000,3921.5386,N,11234.5647,W,2,8,1.08,1432.7,M,-17.0,M,0000,0000*53
243900'$GPRMC,153127.000,A,3921.5386,N,11234.5647,W,0.10,178.87,040821,,,D*71
244839'$GPGGA,153128.000,3921.5387,N,11234.5646,W,2,8,1.00,1432.5,M,-17.0,M,0000,0000*56
244911'$GPRMC,153128.000,A,3921.5387,N,11234.5646,W,0.09,178.87,040821,,,D*76
245828'$GPGGA,153129.000,3921.5387,N,11234.5646,W,2,8,1.00,1432.1,M,-17.0,M,0000,0000*53
245900'$GPRMC,153129.000,A,3921.5387,N,11234.5646,W,0.07,178.87,040821,,,D*79
246897'$GPGGA,153130.000,3921.5388,N,11234.5645,W,2,8,1.00,1431.8,M,-17.0,M,0000,0000*5D
246967'$GPRMC,153130.000,A,3921.5388,N,11234.5645,W,0.06,178.87,040821,,,D*7C
247909'$GPGGA,153131.000,3921.5388,N,11234.5645,W,2,8,1.00,1431.5,M,-17.0,M,0000,0000*51
247981'$GPRMC,153131.000,A,3921.5388,N,11234.5645,W,0.05,178.87,040821,,,D*7E
248842'$GPGGA,153132.000,3921.5389,N,11234.5645,W,2,8,1.00,1431.2,M,-17.0,M,0000,0000*54
248912'$GPRMC,153132.000,A,3921.5389,N,11234.5645,W,0.04,178.87,040821,,,D*7D
249881'$GPGGA,153133.000,3921.5389,N,11234.5645,W,2,8,1.00,1430.9,M,-17.0,M,0000,0000*5F
249953'$GPRMC,153133.000,A,3921.5389,N,11234.5645,W,0.03,178.87,040821,,,D*7B
250821'$GPGGA,153134.000,3921.5389,N,11234.5644,W,2,8,1.00,1430.5,M,-17.0,M,0000,0000*55
250891'$GPRMC,153134.000,A,3921.5389,N,11234.5644,W,0.02,178.87,040821,,,D*7C
251837'$GPGGA,153135.000,3921.5389,N,11234.5644,W,2,8,1.00,1430.3,M,-17.0,M,0000,0000*52
251909'$GPRMC,153135.000,A,3921.5389,N,11234.5644,W,0.01,178.87,040821,,,D*7E
252819'$GPGGA,153136.000,3921.5390,N,11234.5644,W,2,8,1.00,1430.0,M,-17.0,M,0000,0000*5A
252889'$GPRMC,153136.000,A,3921.5390,N,11234.5644,W,0.01,178.87,040821,,,D*75
253842'$GPGGA,153137.000,3921.5390,N,11234.5643,W,2,8,1.00,1429.7,M,-17.0,M,0000,0000*53
253914'$GPRMC,153137.000,A,3921.5390,N,11234.5643,W,0.00,178.87,040821,,,D*72
254828'$GPGGA,153138.000,3921.5390,N,11234.5643,W,2,8,1.00,1429.3,M,-17.0,M,0000,0000*58
254900'$GPRMC,153138.000,A,3921.5390,N,11234.5643,W,0.01,178.87,040821,,,D*7C
255828'$GPGGA,153139.000,3921.5391,N,11234.5643,W,2,8,1.00,1429.0,M,-17.0,M,0000,0000*5B
255900'$GPRMC,153139.000,A,3921.5391,N,11234.5643,W,0.01,178.87,040821,,,D*7C
256819'$GPGGA,153140.000,3921.5391,N,11234.5643,W,2,8,1.00,1428.8,M,-17.0,M,0000,0000*5C
256890'$GPRMC,153140.000,A,3921.5391,N,11234.5643,W,0.02,178.87,040821,,,D*71
257884'$GPGGA,153141.000,3921.5391,N,11234.5642,W,2,8,1.00,1428.6,M,-17.0,M,0000,0000*52
257953'$GPRMC,153141.000,A,3921.5391,N,11234.5642,W,0.01,178.87,040821,,,D*72
258817'$GPGGA,153142.000,3921.5391,N,11234.5642,W,2,8,1.00,1428.3,M,-17.0,M,0000,0000*54
258887'$GPRMC,153142.000,A,3921.5391,N,11234.5642,W,0.01,178.87,040821,,,D*71
259823'$GPGGA,153143.000,3921.5391,N,11234.5642,W,2,8,1.00,1428.2,M,-17.0,M,0000,0000*54
259895'$GPRMC,153143.000,A,3921.5391,N,11234.5642,W,0.02,178.87,040821,,,D*73
260849'$GPGGA,153144.000,3921.5392,N,11234.5641,W,2,8,1.00,1428.0,M,-17.0,M,0000,0000*51
260921'$GPRMC,153144.000,A,3921.5392,N,11234.5641,W,0.01,178.87,040821,,,D*77
261848'$GPGGA,153145.000,3921.5392,N,11234.5642,W,2,8,1.00,1427.8,M,-17.0,M,0000,0000*54
261919'$GPRMC,153145.000,A,3921.5392,N,11234.5642,W,0.01,178.87,040821,,,D*75
262860'$GPGGA,153146.000,3921.5392,N,11234.5642,W,2,8,1.00,1427.7,M,-17.0,M,0000,0000*58
262932'$GPRMC,153146.000,A,3921.5392,N,11234.5642,W,0.02,178.87,040821,,,D*75
263849'$GPGGA,153147.000,3921.5392,N,11234.5642,W,2,8,1.00,1427.7,M,-17.0,M,0000,0000*59
263921'$GPRMC,153147.000,A,3921.5392,N,11234.5642,W,0.02,178.87,040821,,,D*74
264795'$GPGGA,153148.000,3921.5392,N,11234.5642,W,2,8,1.00,1427.7,M,-17.0,M,0000,0000*56
264866'$GPRMC,153148.000,A,3921.5392,N,11234.5642,W,0.01,178.87,040821,,,D*78
265823'$GPGGA,153149.000,3921.5392,N,11234.5642,W,2,8,1.00,1427.7,M,-17.0,M,0000,0000*57
265894'$GPRMC,153149.000,A,3921.5392,N,11234.5642,W,0.00,178.87,040821,,,D*78
266810'$GPGGA,153150.000,3921.5392,N,11234.5642,W,2,8,1.00,1427.7,M,-17.0,M,0000,0000*5F
266881'$GPRMC,153150.000,A,3921.5392,N,11234.5642,W,0.00,178.87,040821,,,D*70
267842'$GPGGA,153151.000,3921.5392,N,11234.5642,W,2,8,1.00,1427.7,M,-17.0,M,0000,0000*5E
267912'$GPRMC,153151.000,A,3921.5392,N,11234.5642,W,0.03,178.87,040821,,,D*72
268857'$GPGGA,153152.000,3921.5392,N,11234.5642,W,2,8,1.00,1427.7,M,-17.0,M,0000,0000*5D
268929'$GPRMC,153152.000,A,3921.5392,N,11234.5642,W,0.03,178.87,040821,,,D*71
269807'$GPGGA,153153.000,3921.5392,N,11234.5642,W,2,8,1.00,1427.7,M,-17.0,M,0000,0000*5C
269877'$GPRMC,153153.000,A,3921.5392,N,11234.5642,W,0.00,178.87,040821,,,D*73
270845'$GPGGA,153154.000,3921.5392,N,11234.5642,W,2,8,1.00,1427.7,M,-17.0,M,0000,0000*5B
270915'$GPRMC,153154.000,A,3921.5392,N,11234.5642,W,0.00,178.87,040821,,,D*74
271817'$GPGGA,153155.000,3921.5392,N,11234.5642,W,2,8,1.00,1427.7,M,-17.0,M,0000,0000*5A
271888'$GPRMC,153155.000,A,3921.5392,N,11234.5642,W,0.01,178.87,040821,,,D*74
272791'$GPGGA,153156.000,3921.5392,N,11234.5642,W,2,8,1.00,1427.6,M,-17.0,M,0000,0000*58
272861'$GPRMC,153156.000,A,3921.5392,N,11234.5642,W,0.01,178.87,040821,,,D*77
273780'$GPGGA,153157.000,3921.5392,N,11234.5642,W,2,8,1.00,1427.6,M,-17.0,M,0000,0000*59
273851'$GPRMC,153157.000,A,3921.5392,N,11234.5642,W,0.03,178.87,040821,,,D*74
274789'$GPGGA,153158.000,3921.5392,N,11234.5642,W,2,8,1.00,1427.6,M,-17.0,M,0000,0000*56
274859'$GPRMC,153158.000,A,3921.5392,N,11234.5642,W,0.01,178.87,040821,,,D*79
275799'$GPGGA,153159.000,3921.5392,N,11234.5642,W,2,8,1.00,1427.6,M,-17.0,M,0000,0000*57
275870'$GPRMC,153159.000,A,3921.5392,N,11234.5642,W,0.02,178.87,040821,,,D*7B
276787'$GPGGA,153200.000,3921.5392,N,11234.5642,W,2,8,1.00,1427.6,M,-17.0,M,0000,0000*58
276858'$GPRMC,153200.000,A,3921.5392,N,11234.5642,W,0.01,178.87,040821,,,D*77
277810'$GPGGA,153201.000,3921.5392,N,11234.5642,W,2,8,1.00,1427.6,M,-17.0,M,0000,0000*59
277881'$GPRMC,153201.000,A,3921.5392,N,11234.5642,W,0.01,178.87,040821,,,D*76
278825'$GPGGA,153202.000,3921.5392,N,11234.5642,W,2,8,1.00,1427.6,M,-17.0,M,0000,0000*5A
278897'$GPRMC,153202.000,A,3921.5392,N,11234.5642,W,0.02,178.87,040821,,,D*76
279781'$GPGGA,153203.000,3921.5392,N,11234.5642,W,2,8,1.00,1427.6,M,-17.0,M,0000,0000*5B
279851'$GPRMC,153203.000,A,3921.5392,N,11234.5642,W,0.03,178.87,040821,,,D*76
280770'$GPGGA,153204.000,3921.5392,N,11234.5642,W,2,8,1.00,1427.6,M,-17.0,M,0000,0000*5C
280836'$GPRMC,153204.000,A,3921.5392,N,11234.5642,W,0.04,178.87,040821,,,D*76
281821'$GPGGA,153205.000,3921.5392,N,11234.5642,W,2,8,1.00,1427.6,M,-17.0,M,0000,0000*5D
281892'$GPRMC,153205.000,A,3921.5392,N,11234.5642,W,0.02,178.87,040821,,,D*71
282830'$GPGGA,153206.000,3921.5392,N,11234.5642,W,2,8,1.00,1427.6,M,-17.0,M,0000,0000*5E
282900'$GPRMC,153206.000,A,3921.5392,N,11234.5642,W,0.03,178.87,040821,,,D*73
283849'$GPGGA,153207.000,3921.5392,N,11234.5642,W,2,8,1.00,1427.6,M,-17.0,M,0000,0000*5F
283926'$GPRMC,153207.000,A,3921.5392,N,11234.5642,W,0.01,178.87,040821,,,D*70
284817'$GPGGA,153208.000,3921.5392,N,11234.5642,W,2,8,1.00,1427.6,M,-17.0,M,0000,0000*50
284889'$GPRMC,153208.000,A,3921.5392,N,11234.5642,W,0.02,178.87,040821,,,D*7C
285761'$GPGGA,153209.000,3921.5392,N,11234.5642,W,2,8,1.00,1427.6,M,-17.0,M,0000,0000*51
285833'$GPRMC,153209.000,A,3921.5392,N,11234.5642,W,0.03,178.87,040821,,,D*7C
286758'$GPGGA,153210.000,3921.5392,N,11234.5642,W,2,8,1.00,1427.6,M,-17.0,M,0000,0000*59
286836'$GPRMC,153210.000,A,3921.5392,N,11234.5642,W,0.03,178.87,040821,,,D*74
287779'$GPGGA,153211.000,3921.5392,N,11234.5642,W,2,8,1.00,1427.6,M,-17.0,M,0000,0000*58
287851'$GPRMC,153211.000,A,3921.5392,N,11234.5642,W,0.01,178.87,040821,,,D*77
288820'$GPGGA,153212.000,3921.5392,N,11234.5642,W,2,8,1.00,1427.6,M,-17.0,M,0000,0000*5B
288889'$GPRMC,153212.000,A,3921.5392,N,11234.5642,W,0.02,178.87,040821,,,D*77
289821'$GPGGA,153213.000,3921.5392,N,11234.5642,W,2,8,1.00,1427.6,M,-17.0,M,0000,0000*5A
289896'$GPRMC,153213.000,A,3921.5392,N,11234.5642,W,0.02,178.87,040821,,,D*76
290725'$GPGGA,153214.000,3921.5392,N,11234.5642,W,2,8,1.00,1427.6,M,-17.0,M,0000,0000*5D
290795'$GPRMC,153214.000,A,3921.5392,N,11234.5642,W,0.02,178.87,040821,,,D*71
291799'$GPGGA,153215.000,3921.5392,N,11234.5642,W,2,8,1.00,1427.6,M,-17.0,M,0000,0000*5C
291868'$GPRMC,153215.000,A,3921.5392,N,11234.5642,W,0.03,178.87,040821,,,D*71
292750'$GPGGA,153216.000,3921.5392,N,11234.5642,W,2,8,1.00,1427.6,M,-17.0,M,0000,0000*5F
292828'$GPRMC,153216.000,A,3921.5392,N,11234.5642,W,0.02,178.87,040821,,,D*73
293728'$GPGGA,153217.000,3921.5392,N,11234.5642,W,2,8,1.00,1427.6,M,-17.0,M,0000,0000*5E
293799'$GPRMC,153217.000,A,3921.5392,N,11234.5642,W,0.03,178.87,040821,,,D*73
294754'$GPGGA,153218.000,3921.5392,N,11234.5642,W,2,8,1.00,1427.6,M,-17.0,M,0000,0000*51
294825'$GPRMC,153218.000,A,3921.5392,N,11234.5642,W,0.01,178.87,040821,,,D*7E
295763'$GPGGA,153219.000,3921.5392,N,11234.5642,W,2,8,1.00,1427.6,M,-17.0,M,0000,0000*50
295839'$GPRMC,153219.000,A,3921.5392,N,11234.5642,W,0.04,178.87,040821,,,D*7A
296753'$GPGGA,153220.000,3921.5392,N,11234.5642,W,2,8,1.00,1427.6,M,-17.0,M,0000,0000*5A
296823'$GPRMC,153220.000,A,3921.5392,N,11234.5642,W,0.03,178.87,040821,,,D*77
297753'$GPGGA,153221.000,3921.5392,N,11234.5642,W,2,8,1.00,1427.6,M,-17.0,M,0000,0000*5B
297823'$GPRMC,153221.000,A,3921.5392,N,11234.5642,W,0.04,178.87,040821,,,D*71
298762'$GPGGA,153222.000,3921.5392,N,11234.5642,W,2,8,1.00,1427.6,M,-17.0,M,0000,0000*58
298839'$GPRMC,153222.000,A,3921.5392,N,11234.5642,W,0.03,178.87,040821,,,D*75
299809'$GPGGA,153223.000,3921.5392,N,11234.5642,W,2,8,1.00,1427.6,M,-17.0,M,0000,0000*59
299881'$GPRMC,153223.000,A,3921.5392,N,11234.5642,W,0.03,178.87,040821,,,D*74
300755'$GPGGA,153224.000,3921.5392,N,11234.5642,W,2,8,1.00,1427.6,M,-17.0,M,0000,0000*5E
300825'$GPRMC,153224.000,A,3921.5392,N,11234.5642,W,0.02,178.87,040821,,,D*72
301751'$GPGGA,153225.000,3921.5392,N,11234.5642,W,2,8,1.00,1427.6,M,-17.0,M,0000,0000*5F
301827'$GPRMC,153225.000,A,3921.5392,N,11234.5642,W,0.00,178.87,040821,,,D*71
302797'$GPGGA,153226.000,3921.5392,N,11234.5642,W,2,8,1.00,1427.6,M,-17.0,M,0000,0000*5C
302868'$GPRMC,153226.000,A,3921.5392,N,11234.5642,W,0.01,178.87,040821,,,D*73
303796'$GPGGA,153227.000,3921.5392,N,11234.5642,W,2,8,1.00,1427.6,M,-17.0,M,0000,0000*5D
303867'$GPRMC,153227.000,A,3921.5392,N,11234.5642,W,0.02,178.87,040821,,,D*71
304803'$GPGGA,153228.000,3921.5392,N,11234.5642,W,2,8,1.00,1427.6,M,-17.0,M,0000,0000*52
304881'$GPRMC,153228.000,A,3921.5392,N,11234.5642,W,0.02,178.87,040821,,,D*7E
305802'$GPGGA,153229.000,3921.5392,N,11234.5642,W,2,8,1.00,1427.6,M,-17.0,M,0000,0000*53
305872'$GPRMC,153229.000,A,3921.5392,N,11234.5642,W,0.00,178.87,040821,,,D*7D
306733'$GPGGA,153230.000,3921.5392,N,11234.5642,W,2,8,1.00,1427.6,M,-17.0,M,0000,0000*5B
306804'$GPRMC,153230.000,A,3921.5392,N,11234.5642,W,0.01,178.87,040821,,,D*74
307742'$GPGGA,153231.000,3921.5392,N,11234.5642,W,2,8,1.00,1427.6,M,-17.0,M,0000,0000*5A
307817'$GPRMC,153231.000,A,3921.5392,N,11234.5642,W,0.00,178.87,040821,,,D*74
308738'$GPGGA,153232.000,3921.5392,N,11234.5642,W,2,8,1.00,1427.6,M,-17.0,M,0000,0000*59
308808'$GPRMC,153232.000,A,3921.5392,N,11234.5642,W,0.00,178.87,040821,,,D*77
309772'$GPGGA,153233.000,3921.5392,N,11234.5642,W,2,8,1.00,1427.6,M,-17.0,M,0000,0000*58
309843'$GPRMC,153233.000,A,3921.5392,N,11234.5642,W,0.02,178.87,040821,,,D*74
310751'$GPGGA,153234.000,3921.5392,N,11234.5642,W,2,8,1.00,1427.6,M,-17.0,M,0000,0000*5F
310830'$GPRMC,153234.000,A,3921.5392,N,11234.5642,W,0.02,178.87,040821,,,D*73
311731'$GPGGA,153235.000,3921.5392,N,11234.5642,W,2,8,1.00,1427.6,M,-17.0,M,0000,0000*5E
311802'$GPRMC,153235.000,A,3921.5392,N,11234.5642,W,0.02,178.87,040821,,,D*72
312771'$GPGGA,153236.000,3921.5392,N,11234.5642,W,2,8,1.00,1427.6,M,-17.0,M,0000,0000*5D
312843'$GPRMC,153236.000,A,3921.5392,N,11234.5642,W,0.01,178.87,040821,,,D*72
313747'$GPGGA,153237.000,3921.5392,N,11234.5642,W,2,8,1.00,1427.6,M,-17.0,M,0000,0000*5C
313824'$GPRMC,153237.000,A,3921.5392,N,11234.5642,W,0.02,178.87,040821,,,D*70
314717'$GPGGA,153238.000,3921.5392,N,11234.5642,W,2,8,1.00,1427.6,M,-17.0,M,0000,0000*53
314788'$GPRMC,153238.000,A,3921.5392,N,11234.5642,W,0.02,178.87,040821,,,D*7F
315731'$GPGGA,153239.000,3921.5393,N,11234.5642,W,2,8,1.00,1427.6,M,-17.0,M,0000,0000*53
315803'$GPRMC,153239.000,A,3921.5393,N,11234.5642,W,0.03,178.87,040821,,,D*7E
316721'$GPGGA,153240.000,3921.5393,N,11234.5642,W,2,8,1.00,1427.6,M,-17.0,M,0000,0000*5D
316798'$GPRMC,153240.000,A,3921.5393,N,11234.5642,W,0.02,178.87,040821,,,D*71
317732'$GPGGA,153241.000,3921.5393,N,11234.5642,W,2,8,1.00,1427.6,M,-17.0,M,0000,0000*5C
317804'$GPRMC,153241.000,A,3921.5393,N,11234.5642,W,0.03,178.87,040821,,,D*71
318722'$GPGGA,153242.000,3921.5393,N,11234.5641,W,2,8,1.00,1427.6,M,-17.0,M,0000,0000*5C
318792'$GPRMC,153242.000,A,3921.5393,N,11234.5641,W,0.01,178.87,040821,,,D*73
319744'$GPGGA,153243.000,3921.5393,N,11234.5641,W,2,8,1.00,1427.6,M,-17.0,M,0000,0000*5D
319818'$GPRMC,153243.000,A,3921.5393,N,11234.5641,W,0.02,178.87,040821,,,D*71
320722'$GPGGA,153244.000,3921.5393,N,11234.5641,W,2,8,1.00,1427.6,M,-17.0,M,0000,0000*5A
320794'$GPRMC,153244.000,A,3921.5393,N,11234.5641,W,0.02,178.87,040821,,,D*76
321773'$GPGGA,153245.000,3921.5393,N,11234.5641,W,2,8,1.00,1427.6,M,-17.0,M,0000,0000*5B
321845'$GPRMC,153245.000,A,3921.5393,N,11234.5641,W,0.02,178.87,040821,,,D*77
322701'$GPGGA,153246.000,3921.5393,N,11234.5641,W,2,8,1.00,1427.6,M,-17.0,M,0000,0000*58
322780'$GPRMC,153246.000,A,3921.5393,N,11234.5641,W,0.03,178.87,040821,,,D*75
323768'$GPGGA,153247.000,3921.5393,N,11234.5642,W,2,8,1.00,1427.6,M,-17.0,M,0000,0000*5A
323838'$GPRMC,153247.000,A,3921.5393,N,11234.5642,W,0.02,178.87,040821,,,D*76
324768'$GPGGA,153248.000,3921.5393,N,11234.5642,W,2,8,1.00,1427.6,M,-17.0,M,0000,0000*55
324839'$GPRMC,153248.000,A,3921.5393,N,11234.5642,W,0.02,178.87,040821,,,D*79
325761'$GPGGA,153249.000,3921.5393,N,11234.5642,W,2,8,1.00,1427.6,M,-17.0,M,0000,0000*54
325836'$GPRMC,153249.000,A,3921.5393,N,11234.5642,W,0.02,178.87,040821,,,D*78
326750'$GPGGA,153250.000,3921.5393,N,11234.5642,W,2,8,1.00,1427.6,M,-17.0,M,0000,0000*5C
326821'$GPRMC,153250.000,A,3921.5393,N,11234.5642,W,0.01,178.87,040821,,,D*73
327703'$GPGGA,153251.000,3921.5393,N,11234.5642,W,2,8,1.00,1427.6,M,-17.0,M,0000,0000*5D
327775'$GPRMC,153251.000,A,3921.5393,N,11234.5642,W,0.02,178.87,040821,,,D*71
328716'$GPGGA,153252.000,3921.5393,N,11234.5642,W,2,8,1.00,1427.6,M,-17.0,M,0000,0000*5E
328793'$GPRMC,153252.000,A,3921.5393,N,11234.5642,W,0.02,178.87,040821,,,D*72
329702'$GPGGA,153253.000,3921.5393,N,11234.5641,W,2,8,1.00,1427.6,M,-17.0,M,0000,0000*5C
329774'$GPRMC,153253.000,A,3921.5393,N,11234.5641,W,0.02,178.87,040821,,,D*70
330765'$GPGGA,153254.000,3921.5393,N,11234.5641,W,2,8,1.00,1427.6,M,-17.0,M,0000,0000*5B
330835'$GPRMC,153254.000,A,3921.5393,N,11234.5641,W,0.03,178.87,040821,,,D*76
331779'$GPGGA,153255.000,3921.5393,N,11234.5641,W,2,8,1.00,1427.6,M,-17.0,M,0000,0000*5A
331854'$GPRMC,153255.000,A,3921.5393,N,11234.5641,W,0.02,178.87,040821,,,D*76
332711'$GPGGA,153256.000,3921.5393,N,11234.5641,W,2,8,1.00,1427.6,M,-17.0,M,0000,0000*59
332781'$GPRMC,153256.000,A,3921.5393,N,11234.5641,W,0.02,178.87,040821,,,D*75
333740'$GPGGA,153257.000,3921.5393,N,11234.5641,W,2,8,1.00,1427.6,M,-17.0,M,0000,0000*58
333810'$GPRMC,153257.000,A,3921.5393,N,11234.5641,W,0.01,178.87,040821,,,D*77
334695'$GPGGA,153258.000,3921.5393,N,11234.5641,W,2,8,1.00,1427.6,M,-17.0,M,0000,0000*57
334766'$GPRMC,153258.000,A,3921.5393,N,11234.5641,W,0.02,178.87,040821,,,D*7B
335686'$GPGGA,153259.000,3921.5393,N,11234.5641,W,2,8,1.00,1427.6,M,-17.0,M,0000,0000*56
335765'$GPRMC,153259.000,A,3921.5393,N,11234.5641,W,0.02,178.87,040821,,,D*7A
336695'$GPGGA,153300.000,3921.5393,N,11234.5641,W,2,8,1.00,1427.6,M,-17.0,M,0000,0000*5B
336766'$GPRMC,153300.000,A,3921.5393,N,11234.5641,W,0.02,178.87,040821,,,D*77
337713'$GPGGA,153301.000,3921.5393,N,11234.5641,W,2,8,1.00,1427.6,M,-17.0,M,0000,0000*5A
337783'$GPRMC,153301.000,A,3921.5393,N,11234.5641,W,0.03,178.87,040821,,,D*77
338695'$GPGGA,153302.000,3921.5393,N,11234.5641,W,2,8,1.00,1427.6,M,-17.0,M,0000,0000*59
338766'$GPRMC,153302.000,A,3921.5393,N,11234.5641,W,0.00,178.87,040821,,,D*77
339683'$GPGGA,153303.000,3921.5393,N,11234.5641,W,2,8,1.00,1427.6,M,-17.0,M,0000,0000*58
339755'$GPRMC,153303.000,A,3921.5393,N,11234.5641,W,0.03,178.87,040821,,,D*75
340647'$GPGGA,153304.000,3921.5393,N,11234.5641,W,2,8,1.00,1427.6,M,-17.0,M,0000,0000*5F
340719'$GPRMC,153304.000,A,3921.5393,N,11234.5641,W,0.02,178.87,040821,,,D*73
341673'$GPGGA,153305.000,3921.5393,N,11234.5641,W,2,8,1.00,1427.6,M,-17.0,M,0000,0000*5E
341745'$GPRMC,153305.000,A,3921.5393,N,11234.5641,W,0.03,178.87,040821,,,D*73
342735'$GPGGA,153306.000,3921.5393,N,11234.5641,W,2,8,1.00,1427.6,M,-17.0,M,0000,0000*5D
342807'$GPRMC,153306.000,A,3921.5393,N,11234.5641,W,0.02,178.87,040821,,,D*71
343710'$GPGGA,153307.000,3921.5393,N,11234.5641,W,2,8,1.00,1427.6,M,-17.0,M,0000,0000*5C
343782'$GPRMC,153307.000,A,3921.5393,N,11234.5641,W,0.02,178.87,040821,,,D*70
344726'$GPGGA,153308.000,3921.5393,N,11234.5641,W,2,8,1.00,1427.6,M,-17.0,M,0000,0000*53
344798'$GPRMC,153308.000,A,3921.5393,N,11234.5641,W,0.02,178.87,040821,,,D*7F
345743'$GPGGA,153309.000,3921.5393,N,11234.5641,W,2,8,1.00,1427.7,M,-17.0,M,0000,0000*53
345814'$GPRMC,153309.000,A,3921.5393,N,11234.5641,W,0.01,178.87,040821,,,D*7D
346724'$GPGGA,153310.000,3921.5393,N,11234.5641,W,2,8,1.00,1427.7,M,-17.0,M,0000,0000*5B
346796'$GPRMC,153310.000,A,3921.5393,N,11234.5641,W,0.01,178.87,040821,,,D*75
347696'$GPGGA,153311.000,3921.5393,N,11234.5641,W,2,8,1.00,1427.7,M,-17.0,M,0000,0000*5A
347766'$GPRMC,153311.000,A,3921.5393,N,11234.5641,W,0.01,178.87,040821,,,D*74
348688'$GPGGA,153312.000,3921.5393,N,11234.5641,W,2,8,1.00,1427.7,M,-17.0,M,0000,0000*59
348760'$GPRMC,153312.000,A,3921.5393,N,11234.5641,W,0.03,178.87,040821,,,D*75
349705'$GPGGA,153313.000,3921.5393,N,11234.5641,W,2,8,1.00,1427.7,M,-17.0,M,0000,0000*58
349776'$GPRMC,153313.000,A,3921.5393,N,11234.5641,W,0.02,178.87,040821,,,D*75
350692'$GPGGA,153314.000,3921.5393,N,11234.5641,W,2,8,1.00,1427.7,M,-17.0,M,0000,0000*5F
350764'$GPRMC,153314.000,A,3921.5393,N,11234.5641,W,0.01,178.87,040821,,,D*71
351718'$GPGGA,153315.000,3921.5393,N,11234.5641,W,2,8,1.00,1427.7,M,-17.0,M,0000,0000*5E
351790'$GPRMC,153315.000,A,3921.5393,N,11234.5641,W,0.03,178.87,040821,,,D*72
352721'$GPGGA,153316.000,3921.5393,N,11234.5641,W,2,8,1.00,1427.7,M,-17.0,M,0000,0000*5D
352793'$GPRMC,153316.000,A,3921.5393,N,11234.5641,W,0.03,178.87,040821,,,D*71
353679'$GPGGA,153317.000,3921.5393,N,11234.5641,W,2,8,1.00,1427.7,M,-17.0,M,0000,0000*5C
353751'$GPRMC,153317.000,A,3921.5393,N,11234.5641,W,0.01,178.87,040821,,,D*72
354711'$GPGGA,153318.000,3921.5393,N,11234.5641,W,2,8,1.00,1427.7,M,-17.0,M,0000,0000*53
354783'$GPRMC,153318.000,A,3921.5393,N,11234.5641,W,0.03,178.87,040821,,,D*7F
355668'$GPGGA,153319.000,3921.5393,N,11234.5641,W,2,8,1.00,1427.7,M,-17.0,M,0000,0000*52
355740'$GPRMC,153319.000,A,3921.5393,N,11234.5641,W,0.02,178.87,040821,,,D*7F
356663'$GPGGA,153320.000,3921.5393,N,11234.5641,W,2,8,1.00,1427.7,M,-17.0,M,0000,0000*58
356734'$GPRMC,153320.000,A,3921.5393,N,11234.5641,W,0.03,178.87,040821,,,D*74
357671'$GPGGA,153321.000,3921.5393,N,11234.5641,W,2,8,1.00,1427.7,M,-17.0,M,0000,0000*59
357743'$GPRMC,153321.000,A,3921.5393,N,11234.5641,W,0.02,178.87,040821,,,D*74
358670'$GPGGA,153322.000,3921.5393,N,11234.5641,W,2,8,1.00,1427.7,M,-17.0,M,0000,0000*5A
358742'$GPRMC,153322.000,A,3921.5393,N,11234.5641,W,0.02,178.87,040821,,,D*77
359667'$GPGGA,153323.000,3921.5393,N,11234.5641,W,2,8,1.00,1427.7,M,-17.0,M,0000,0000*5B
359739'$GPRMC,153323.000,A,3921.5393,N,11234.5641,W,0.01,178.87,040821,,,D*75
360642'$GPGGA,153324.000,3921.5393,N,11234.5641,W,2,8,1.00,1427.7,M,-17.0,M,0000,0000*5C
360713'$GPRMC,153324.000,A,3921.5393,N,11234.5641,W,0.01,178.87,040821,,,D*72
361670'$GPGGA,153325.000,3921.5393,N,11234.5641,W,2,8,1.00,1427.7,M,-17.0,M,0000,0000*5D
361742'$GPRMC,153325.000,A,3921.5393,N,11234.5641,W,0.01,178.87,040821,,,D*73
362652'$GPGGA,153326.000,3921.5393,N,11234.5641,W,2,8,1.00,1427.7,M,-17.0,M,0000,0000*5E
362724'$GPRMC,153326.000,A,3921.5393,N,11234.5641,W,0.00,178.87,040821,,,D*71
363704'$GPGGA,153327.000,3921.5393,N,11234.5641,W,2,8,1.00,1427.7,M,-17.0,M,0000,0000*5F
363774'$GPRMC,153327.000,A,3921.5393,N,11234.5641,W,0.02,178.87,040821,,,D*72
364658'$GPGGA,153328.000,3921.5393,N,11234.5641,W,2,8,1.00,1427.7,M,-17.0,M,0000,0000*50
364730'$GPRMC,153328.000,A,3921.5393,N,11234.5641,W,0.03,178.87,040821,,,D*7C
365688'$GPGGA,153329.000,3921.5393,N,11234.5641,W,2,8,1.00,1427.7,M,-17.0,M,0000,0000*51
365760'$GPRMC,153329.000,A,3921.5393,N,11234.5641,W,0.01,178.87,040821,,,D*7F
366687'$GPGGA,153330.000,3921.5393,N,11234.5641,W,2,8,1.00,1427.7,M,-17.0,M,0000,0000*59
366758'$GPRMC,153330.000,A,3921.5393,N,11234.5641,W,0.02,178.87,040821,,,D*74
367684'$GPGGA,153331.000,3921.5393,N,11234.5641,W,2,8,1.00,1427.7,M,-17.0,M,0000,0000*58
367755'$GPRMC,153331.000,A,3921.5393,N,11234.5641,W,0.01,178.87,040821,,,D*76
368689'$GPGGA,153332.000,3921.5393,N,11234.5641,W,2,8,1.00,1427.7,M,-17.0,M,0000,0000*5B
368759'$GPRMC,153332.000,A,3921.5393,N,11234.5641,W,0.02,178.87,040821,,,D*76
369641'$GPGGA,153333.000,3921.5393,N,11234.5641,W,2,8,1.00,1427.7,M,-17.0,M,0000,0000*5A
369713'$GPRMC,153333.000,A,3921.5393,N,11234.5641,W,0.02,178.87,040821,,,D*77
370634'$GPGGA,153334.000,3921.5393,N,11234.5641,W,2,8,1.00,1427.7,M,-17.0,M,0000,0000*5D
370706'$GPRMC,153334.000,A,3921.5393,N,11234.5641,W,0.04,178.87,040821,,,D*76
371625'$GPGGA,153335.000,3921.5393,N,11234.5641,W,2,8,1.00,1427.7,M,-17.0,M,0000,0000*5C
371697'$GPRMC,153335.000,A,3921.5393,N,11234.5641,W,0.03,178.87,040821,,,D*70
372682'$GPGGA,153336.000,3921.5393,N,11234.5641,W,2,8,1.00,1427.7,M,-17.0,M,0000,0000*5F
372754'$GPRMC,153336.000,A,3921.5393,N,11234.5641,W,0.02,178.87,040821,,,D*72
373664'$GPGGA,153337.000,3921.5393,N,11234.5641,W,2,8,1.00,1427.7,M,-17.0,M,0000,0000*5E
373736'$GPRMC,153337.000,A,3921.5393,N,11234.5641,W,0.07,178.87,040821,,,D*76
374658'$GPGGA,153338.000,3921.5393,N,11234.5641,W,2,8,1.00,1427.7,M,-17.0,M,0000,0000*51
374728'$GPRMC,153338.000,A,3921.5393,N,11234.5641,W,0.05,178.87,040821,,,D*7B
375698'$GPGGA,153339.000,3921.5393,N,11234.5641,W,2,8,1.00,1427.7,M,-17.0,M,0000,0000*50
375770'$GPRMC,153339.000,A,3921.5393,N,11234.5641,W,0.02,178.87,040821,,,D*7D
376662'$GPGGA,153340.000,3921.5393,N,11234.5641,W,2,8,1.00,1427.7,M,-17.0,M,0000,0000*5E
376732'$GPRMC,153340.000,A,3921.5393,N,11234.5641,W,0.03,178.87,040821,,,D*72
377643'$GPGGA,153341.000,3921.5393,N,11234.5641,W,2,8,1.00,1427.7,M,-17.0,M,0000,0000*5F
377714'$GPRMC,153341.000,A,3921.5393,N,11234.5641,W,0.02,178.87,040821,,,D*72
378622'$GPGGA,153342.000,3921.5393,N,11234.5641,W,2,8,1.00,1427.7,M,-17.0,M,0000,0000*5C
378694'$GPRMC,153342.000,A,3921.5393,N,11234.5641,W,0.08,178.87,040821,,,D*7B
379656'$GPGGA,153343.000,3921.5393,N,11234.5641,W,2,8,1.00,1427.7,M,-17.0,M,0000,0000*5D
379726'$GPRMC,153343.000,A,3921.5393,N,11234.5641,W,0.06,178.87,040821,,,D*74
380620'$GPGGA,153344.000,3921.5393,N,11234.5641,W,2,8,1.00,1427.7,M,-17.0,M,0000,0000*5A
